[{
        "id": "1",
        "name": "Taj Mahal",
        "city": "Agra",
        "state": "Uttar Pradesh",
        "coords": { "lat": 27.1751, "lon": 78.0421 },
        "category": "Monument",
        "tags": ["historic", "architecture", "must-see"],
        "description": "Iconic 17th-century white marble mausoleum built by Mughal emperor Shah Jahan.",
        "image": "https://source.unsplash.com/featured/?tajmahal"
    },
    {
        "id": "2",
        "name": "Amber Fort",
        "city": "Jaipur",
        "state": "Rajasthan",
        "coords": { "lat": 26.9855, "lon": 75.8513 },
        "category": "Fort",
        "tags": ["fort", "heritage", "rajasthan"],
        "description": "Hilltop fort famous for its artistic Hindu architecture and mirror work.",
        "image": "https://source.unsplash.com/featured/?amberfort"
    },
    {
        "id": "3",
        "name": "City Palace",
        "city": "Udaipur",
        "state": "Rajasthan",
        "coords": { "lat": 24.5768, "lon": 73.6800 },
        "category": "Palace",
        "tags": ["lake", "palace", "romantic"],
        "description": "Grand palace complex overlooking Lake Pichola, known for ornate balconies and courtyards.",
        "image": "https://source.unsplash.com/featured/?udaipur"
    },
    {
        "id": "4",
        "name": "Varanasi Ghats",
        "city": "Varanasi",
        "state": "Uttar Pradesh",
        "coords": { "lat": 25.3176, "lon": 82.9739 },
        "category": "Spiritual",
        "tags": ["ghats", "ganga", "pilgrimage"],
        "description": "Ancient riverfront steps along the Ganges, major spiritual and cultural hub.",
        "image": "https://source.unsplash.com/featured/?varanasi,ghats"
    },
    {
        "id": "5",
        "name": "Goa Beaches",
        "city": "Goa",
        "state": "Goa",
        "coords": { "lat": 15.4966, "lon": 73.8278 },
        "category": "Beach",
        "tags": ["beach", "party", "water-sports"],
        "description": "Sandy beaches, nightlife, seafood and Portuguese heritage.",
        "image": "https://source.unsplash.com/featured/?goa,beach"
    },
    {
        "id": "6",
        "name": "Munnar",
        "city": "Munnar",
        "state": "Kerala",
        "coords": { "lat": 10.0889, "lon": 77.0595 },
        "category": "Hill Station",
        "tags": ["tea-plantations", "hills", "nature"],
        "description": "Scenic hill station with tea gardens, waterfalls and cool climate.",
        "image": "https://source.unsplash.com/featured/?munnar,tea"
    },
    {
        "id": "7",
        "name": "Red Fort",
        "city": "New Delhi",
        "state": "Delhi",
        "coords": { "lat": 28.6562, "lon": 77.2410 },
        "category": "Fort",
        "tags": ["historic", "mughal", "museum"],
        "description": "Massive red sandstone fort and UNESCO site in the heart of Delhi.",
        "image": "https://source.unsplash.com/featured/?redfort"
    },
    {
        "id": "8",
        "name": "Gateway of India",
        "city": "Mumbai",
        "state": "Maharashtra",
        "coords": { "lat": 18.9218, "lon": 72.8347 },
        "category": "Monument",
        "tags": ["sea", "landmark", "colonial"],
        "description": "Iconic arch on Mumbaiâ€™s waterfront built during the British era.",
        "image": "https://source.unsplash.com/featured/?gatewayofindia"
    },
    {
        "id": "9",
        "name": "Mahabalipuram",
        "city": "Mahabalipuram",
        "state": "Tamil Nadu",
        "coords": { "lat": 12.6186, "lon": 80.1930 },
        "category": "Heritage",
        "tags": ["temples", "shore", "sculpture"],
        "description": "Ancient rock-cut temples and shore temples dating from the Pallava dynasty.",
        "image": "https://source.unsplash.com/featured/?mahabalipuram"
    },
    {
        "id": "10",
        "name": "Victoria Memorial",
        "city": "Kolkata",
        "state": "West Bengal",
        "coords": { "lat": 22.5448, "lon": 88.3426 },
        "category": "Museum",
        "tags": ["museum", "colonial", "art"],
        "description": "Large marble museum and memorial dedicated to Queen Victoria.",
        "image": "https://source.unsplash.com/featured/?victoriamemorial"
    },
    {
        "id": "11",
        "name": "Hampi",
        "city": "Hampi",
        "state": "Karnataka",
        "coords": { "lat": 15.3350, "lon": 76.4600 },
        "category": "Ruins",
        "tags": ["ruins", "historic", "unesco"],
        "description": "Ancient Vijayanagara ruins spread across boulder-strewn landscape.",
        "image": "https://source.unsplash.com/featured/?hampi"
    },
    {
        "id": "12",
        "name": "Khajuraho Temples",
        "city": "Khajuraho",
        "state": "Madhya Pradesh",
        "coords": { "lat": 24.8310, "lon": 79.9406 },
        "category": "Temple",
        "tags": ["sculpture", "architecture", "unesco"],
        "description": "Famous for intricately carved erotic sculptures and temple architecture.",
        "image": "https://source.unsplash.com/featured/?khajuraho"
    },
    {
        "id": "13",
        "name": "Golden Temple",
        "city": "Amritsar",
        "state": "Punjab",
        "coords": { "lat": 31.6200, "lon": 74.8765 },
        "category": "Temple",
        "tags": ["sikh", "spiritual", "langar"],
        "description": "Holiest gurdwara of Sikhism, known for its golden architecture and community kitchen.",
        "image": "https://source.unsplash.com/featured/?goldentemple"
    },
    {
        "id": "14",
        "name": "Shimla",
        "city": "Shimla",
        "state": "Himachal Pradesh",
        "coords": { "lat": 31.1048, "lon": 77.1734 },
        "category": "Hill Station",
        "tags": ["hills", "mall-road", "snow"],
        "description": "Popular colonial hill station and gateway to Himalayan excursions.",
        "image": "https://source.unsplash.com/featured/?shimla"
    },
    {
        "id": "15",
        "name": "Manali",
        "city": "Manali",
        "state": "Himachal Pradesh",
        "coords": { "lat": 32.2432, "lon": 77.1892 },
        "category": "Hill Station",
        "tags": ["adventure", "hills", "snow"],
        "description": "Famous hill station known for adventure sports and mountain views.",
        "image": "https://source.unsplash.com/featured/?manali"
    },
    {
        "id": "16",
        "name": "Pangong Lake",
        "city": "Pangong",
        "state": "Ladakh",
        "coords": { "lat": 33.7389, "lon": 78.9535 },
        "category": "Lake",
        "tags": ["mountain-lake", "scenic", "ladakh"],
        "description": "High-altitude lake known for shifting colors and stark mountain views.",
        "image": "https://source.unsplash.com/featured/?pangonglake"
    },
    {
        "id": "17",
        "name": "Radhanagar Beach (Havelock)",
        "city": "Havelock Island",
        "state": "Andaman & Nicobar Islands",
        "coords": { "lat": 11.9890, "lon": 92.9950 },
        "category": "Beach",
        "tags": ["beach", "snorkeling", "island"],
        "description": "Famous white sand beach with clear blue waters, consistently ranked top in Asia.",
        "image": "https://source.unsplash.com/featured/?radhanagarbeach"
    },
    {
        "id": "18",
        "name": "Rann of Kutch",
        "city": "Dhordo",
        "state": "Gujarat",
        "coords": { "lat": 23.7333, "lon": 69.6667 },
        "category": "Landscape",
        "tags": ["desert", "festival", "salt"],
        "description": "Vast white salt marsh famous for the Rann Utsav and moonlit expanses.",
        "image": "https://source.unsplash.com/featured/?rannofkutch"
    },
    {
        "id": "19",
        "name": "Gangtok & Tsomgo Lake",
        "city": "Gangtok",
        "state": "Sikkim",
        "coords": { "lat": 27.3389, "lon": 88.6065 },
        "category": "Hill Station",
        "tags": ["mountains", "lake", "culture"],
        "description": "Scenic northeastern hill capital with nearby glacial lakes and monasteries.",
        "image": "https://source.unsplash.com/featured/?gangtok"
    },
    {
        "id": "20",
        "name": "Ooty (Nilgiri Hills)",
        "city": "Ooty",
        "state": "Tamil Nadu",
        "coords": { "lat": 11.4064, "lon": 76.6950 },
        "category": "Hill Station",
        "tags": ["tea", "hills", "botanical"],
        "description": "Classic hill station known for tea gardens, toy train and botanical gardens.",
        "image": "https://source.unsplash.com/featured/?ooty"
    }
]